City_ID,City,Lat,Lng,Max Temp,Humidity,Cloudiness,Wind Speed,Country,Date
0,pedernales,18.0384,-71.744,24.81,73,20,1.9,DO,1678151606
1,khatanga,71.9667,102.5,-33.15,100,99,1.23,RU,1678151297
2,mataura,-46.1927,168.8643,21.38,32,16,1.8,NZ,1678151214
3,cape town,-33.9258,18.4232,19.1,70,0,7.15,ZA,1678151202
4,hirara,24.8,125.2833,21.15,43,20,4.63,JP,1678151607
5,ostrovnoy,68.0531,39.5131,-12.47,90,100,4.91,RU,1678151608
6,hobart,-42.8794,147.3294,18.48,48,75,11.32,AU,1678151609
7,saint-philippe,-21.3585,55.7679,24.77,87,95,4.65,RE,1678151232
8,mtimbira,-8.7833,36.35,21.43,91,87,1.02,TZ,1678151610
9,kisarawe,-6.9,39.0667,23.16,84,100,2.31,TZ,1678151611
10,rocha,-34.4833,-54.3333,18.05,95,12,2.82,UY,1678151337
11,severo-yeniseyskiy,60.3725,93.0408,-6.6,93,100,5.28,RU,1678151612
12,punta arenas,-53.15,-70.9167,6.06,81,20,3.09,CL,1678151081
13,nome,64.5011,-165.4064,1.2,100,100,5.66,US,1678151083
14,atuona,-9.8,-139.0333,26.92,77,20,5.0,PF,1678151235
15,tiksi,71.6872,128.8694,-23.92,93,100,2.59,RU,1678151213
16,yellowknife,62.456,-114.3525,-23.71,70,40,3.6,CA,1678151125
17,lebu,-37.6167,-73.65,14.97,96,57,3.12,CL,1678150933
18,mirador,-6.3708,-44.3631,23.54,92,73,1.05,BR,1678151617
19,dikson,73.5069,80.5464,-28.94,98,100,5.79,RU,1678151252
20,albany,42.6001,-73.9662,2.36,48,82,4.08,US,1678151086
21,stornoway,58.2093,-6.3865,-0.02,93,75,3.09,GB,1678151439
22,mahebourg,-20.4081,57.7,24.58,82,97,3.84,MU,1678151619
23,ushuaia,-54.8,-68.3,3.3,89,30,3.91,AR,1678151231
24,vila franca do campo,37.7167,-25.4333,17.23,95,100,10.09,PT,1678151620
25,kapaa,22.0752,-159.319,27.18,58,0,9.26,US,1678151211
26,luanda,-8.8368,13.2343,26.0,78,75,2.57,AO,1678151621
27,leningradskiy,69.3833,178.4167,-29.03,92,10,0.61,RU,1678151207
28,pisco,-13.7,-76.2167,24.03,78,0,8.23,PE,1678151149
29,tuktoyaktuk,69.4541,-133.0374,-28.69,97,8,3.42,CA,1678151210
30,torbay,47.6666,-52.7314,-1.45,90,100,3.09,CA,1678151000
31,arman,59.7,150.1667,-16.66,88,99,0.78,RU,1678151306
32,esperance,-33.8667,121.9,17.52,49,31,3.48,AU,1678151327
33,namwala,-15.7504,26.4384,18.14,96,100,1.42,ZM,1678151625
34,chateauroux,46.8167,1.7,3.0,70,100,3.09,FR,1678151625
35,kaitangata,-46.2817,169.8464,18.36,53,98,3.04,NZ,1678151447
36,santa maria,-29.6842,-53.8069,20.66,97,95,2.25,BR,1678151607
37,rikitea,-23.1203,-134.9692,26.93,77,100,9.85,PF,1678151206
38,shieli,44.1667,66.75,11.53,65,100,7.06,KZ,1678151627
39,ngunguru,-35.6167,174.5,20.46,67,72,2.47,NZ,1678151628
40,touros,-5.1989,-35.4608,26.52,75,82,5.76,BR,1678151290
41,ola,59.5833,151.2833,-16.03,84,95,0.47,RU,1678151629
42,conakry,9.538,-13.6773,25.92,70,100,2.89,GN,1678151629
43,flin flon,54.7682,-101.865,-21.42,97,100,1.59,CA,1678151630
44,arraial do cabo,-22.9661,-42.0278,24.72,90,8,9.92,BR,1678151217
45,butaritari,3.0707,172.7902,26.59,81,100,3.83,KI,1678151287
46,puerto cabezas,14.0351,-83.3888,24.17,79,22,4.3,NI,1678151632
47,mehamn,71.0357,27.8492,-11.03,67,75,4.63,NO,1678151632
48,san ramon de la nueva oran,-23.1322,-64.326,32.46,81,100,3.47,AR,1678151438
49,mobaye,4.319,21.1786,25.88,44,100,1.12,CF,1678151633
50,katsuura,35.1333,140.3,13.6,60,4,1.12,JP,1678151310
51,ilulissat,69.2167,-51.1,-6.99,73,5,1.54,GL,1678151262
52,jamestown,42.097,-79.2353,0.85,100,100,4.12,US,1678151043
53,ribeira grande,38.5167,-28.7,16.54,88,20,9.83,PT,1678151220
54,roald,62.5833,6.1333,-1.8,93,100,1.54,NO,1678151572
55,meulaboh,4.1363,96.1285,24.56,86,3,1.24,ID,1678151422
56,caravelas,-17.7125,-39.2481,24.79,90,89,3.82,BR,1678151637
57,sechura,-5.5569,-80.8222,25.6,77,100,4.34,PE,1678151637
58,saint-pierre,-21.3393,55.4781,25.32,88,100,2.06,RE,1678151217
59,lopukhiv,48.3653,23.9638,-1.25,96,100,1.63,UA,1678151638
60,bluff,-46.6,168.3333,21.56,57,98,1.96,NZ,1678151240
61,buala,-8.145,159.5921,28.19,79,44,3.4,SB,1678151640
62,klaksvik,62.2266,-6.589,-2.49,60,100,13.71,FO,1678151060
63,hasaki,35.7333,140.8333,15.16,60,6,2.09,JP,1678151492
64,kloulklubed,7.0419,134.2556,26.28,79,100,6.42,PW,1678151479
65,new norfolk,-42.7826,147.0587,18.29,51,95,4.47,AU,1678151441
66,thompson,55.7435,-97.8558,-21.99,98,100,1.63,CA,1678151643
67,hermanus,-34.4187,19.2345,18.22,82,5,6.77,ZA,1678151276
68,shingu,33.7333,135.9833,16.17,34,0,0.26,JP,1678151644
69,husavik,66.0449,-17.3389,-4.98,71,100,6.73,IS,1678151256
70,san patricio,28.017,-97.5169,24.54,79,0,5.51,US,1678151438
71,florianopolis,-27.6146,-48.5012,23.57,97,75,2.57,BR,1678151508
72,kodinar,20.7903,70.7031,23.59,47,3,2.36,IN,1678151646
73,tongren,27.7172,109.1853,16.31,91,99,0.19,CN,1678151647
74,am timan,11.0297,20.2827,29.18,10,100,4.2,TD,1678151648
75,qaanaaq,77.484,-69.3632,-8.47,88,99,3.06,GL,1678151264
76,bredasdorp,-34.5322,20.0403,17.88,76,97,5.4,ZA,1678151259
77,mtwara,-10.2667,40.1833,26.63,76,100,5.04,TZ,1678151650
78,lavrentiya,65.5833,-171.0,-9.03,94,100,3.06,RU,1678151281
79,georgetown,5.4112,100.3354,26.96,76,20,3.09,MY,1678151075
80,port hedland,-20.3167,118.5667,32.03,58,8,3.09,AU,1678151518
81,zyryanka,65.75,150.85,-24.36,78,100,0.75,RU,1678151652
82,hilo,19.7297,-155.09,27.93,71,40,2.57,US,1678151229
83,tasiilaq,65.6145,-37.6368,-5.91,86,15,5.83,GL,1678150998
84,carutapera,-1.195,-46.02,24.32,95,100,2.66,BR,1678151557
85,busselton,-33.65,115.3333,18.12,53,0,6.37,AU,1678151202
86,sangueya,10.7,-14.3667,22.44,78,100,0.93,GN,1678151655
87,saryozek,44.3583,77.9753,3.28,85,75,2.69,KZ,1678151656
88,vardo,70.3705,31.1107,-9.01,79,100,7.2,NO,1678151559
89,upington,-28.4478,21.2561,19.97,28,0,4.38,ZA,1678151657
90,najran,17.4924,44.1277,16.6,32,0,0.94,SA,1678151560
91,bethel,41.3712,-73.414,6.17,36,0,2.06,US,1678151289
92,anadyr,64.75,177.4833,-28.72,68,0,6.0,RU,1678151143
93,tiarei,-17.5333,-149.3333,27.01,90,100,9.11,PF,1678151375
94,wonthaggi,-38.6044,145.5913,18.23,63,87,10.24,AU,1678151659
95,mount isa,-20.7333,139.5,23.87,94,100,4.63,AU,1678151448
96,provideniya,64.3833,-173.3,-5.91,86,100,2.0,RU,1678151215
97,gat,31.61,34.7642,13.55,79,48,1.03,IL,1678151562
98,khorramabad,33.4878,48.3558,10.79,87,75,0.0,IR,1678151661
99,port alfred,-33.5906,26.891,17.32,94,29,1.34,ZA,1678151318
100,saint-georges,12.0564,-61.7485,25.35,74,78,5.58,GD,1678151364
101,sicuani,-14.2694,-71.2261,8.17,87,100,1.22,PE,1678151663
102,dauphin,51.1494,-100.0502,-21.3,99,14,0.73,CA,1678151664
103,yining,29.0361,114.5636,19.21,40,47,0.69,CN,1678151665
104,adrar,20.5022,-10.0711,23.08,11,100,3.73,MR,1678151531
105,yalutorovsk,56.6536,66.3006,-15.36,98,50,2.29,RU,1678151666
106,vaini,-21.2,-175.2,26.39,68,66,6.8,TO,1678151221
107,camacha,33.0833,-16.3333,16.68,94,40,4.12,PT,1678151667
108,airai,-8.9266,125.4092,20.63,69,100,1.31,TL,1678151236
109,olafsvik,64.8945,-23.7142,-2.91,61,100,5.51,IS,1678151668
110,egvekinot,66.3167,-179.1667,-21.38,87,16,2.73,RU,1678151669
111,carnarvon,-24.8667,113.6333,27.88,54,0,6.34,AU,1678151285
112,tripoli,32.8752,13.1875,18.37,48,100,7.12,LY,1678151670
113,guamal,9.1433,-74.2238,27.38,73,69,3.02,CO,1678151396
114,oistins,13.0667,-59.5333,24.96,75,84,6.09,BB,1678151403
115,altamira,-3.2033,-52.2064,23.18,98,98,1.03,BR,1678151671
116,bambous virieux,-20.3428,57.7575,24.56,82,93,3.53,MU,1678151267
117,kununurra,-15.7667,128.7333,30.99,55,100,3.6,AU,1678151672
118,tevriz,57.509,72.4042,-4.44,91,97,4.27,RU,1678151673
119,bilibino,68.0546,166.4372,-26.35,88,6,0.91,RU,1678151674
120,narsaq,60.9167,-46.05,2.12,83,11,2.21,GL,1678150997
121,zhigansk,66.7697,123.3711,-29.87,97,46,1.99,RU,1678151675
122,clyde river,70.4692,-68.5914,-13.5,94,34,0.76,CA,1678151433
123,ilhabela,-23.7781,-45.3581,24.61,84,12,2.6,BR,1678151356
124,dunedin,-45.8742,170.5036,17.76,61,100,5.79,NZ,1678151503
125,zabol,32.25,67.25,8.29,58,0,2.0,AF,1678151677
126,verbilki,56.5333,37.6,-9.59,94,100,3.36,RU,1678151678
127,fort nelson,58.8053,-122.7002,-13.28,89,100,2.16,CA,1678151678
128,ponta delgada,37.7333,-25.6667,17.4,94,75,10.8,PT,1678151301
129,buchanan,5.8808,-10.0467,26.18,91,100,2.6,LR,1678151573
130,san policarpo,12.1791,125.5072,26.21,83,4,5.74,PH,1678151680
131,akdepe,42.0551,59.3788,18.05,24,100,7.75,TM,1678151681
132,kruisfontein,-34.0033,24.7314,17.16,86,100,1.47,ZA,1678151437
133,khash,28.2211,61.2158,14.46,33,0,0.23,IR,1678151682
134,cidreira,-30.1811,-50.2056,23.6,91,68,5.07,BR,1678150998
135,faanui,-16.4833,-151.75,25.87,78,100,6.03,PF,1678151388
136,itarema,-2.9248,-39.9167,26.38,81,100,5.76,BR,1678151444
137,vanavara,60.34,102.2797,-17.48,99,100,1.95,RU,1678151683
138,port hawkesbury,45.6169,-61.3485,-1.57,92,100,0.45,CA,1678151684
139,cascais,38.6979,-9.4215,14.73,90,100,8.94,PT,1678151685
140,geraldton,-28.7667,114.6,26.23,31,0,6.17,AU,1678151442
141,wakkanai,45.4094,141.6739,3.99,81,75,7.2,JP,1678151686
142,byron bay,-28.65,153.6167,33.17,54,0,6.35,AU,1678151349
143,aykhal,66.0,111.5,-30.28,99,91,2.76,RU,1678151687
144,juneau,58.3019,-134.4197,-3.0,100,75,5.14,US,1678151410
145,marsh harbour,26.5412,-77.0636,23.96,76,75,5.07,BS,1678151688
146,port elizabeth,-33.918,25.5701,18.39,95,88,0.45,ZA,1678151378
147,ust-kuyga,70.0167,135.6,-22.28,98,100,0.53,RU,1678151689
148,kavieng,-2.5744,150.7967,27.92,73,68,1.48,PG,1678151414
149,inirida,3.8653,-67.9239,23.71,93,100,0.58,CO,1678151504
150,ancud,-41.8697,-73.8203,12.05,91,100,1.06,CL,1678151223
151,mar del plata,-38.0023,-57.5575,25.05,74,0,2.24,AR,1678151204
152,salamiyah,35.0113,37.0532,8.64,88,0,5.09,SY,1678151692
153,praya,14.9215,-23.5087,21.3,78,20,4.63,CV,1678151693
154,norman wells,65.282,-126.8329,-17.9,95,100,0.15,CA,1678151467
155,nikolskoye,59.7035,30.7861,-6.22,98,98,1.24,RU,1678151391
156,bucerias,20.75,-105.3333,23.88,68,0,3.09,MX,1678151534
157,barrow,71.2906,-156.7887,-8.99,79,0,8.75,US,1678150918
158,yaan,7.3833,8.5667,26.95,71,79,4.27,NG,1678151695
159,maxixe,-23.8597,35.3472,23.06,92,8,3.52,MZ,1678151696
160,talnakh,69.4865,88.3972,-26.72,95,98,2.58,RU,1678151222
161,tacna,-18.0056,-70.2483,23.11,60,0,0.51,PE,1678151697
162,shelburne,44.0787,-80.2041,-0.69,67,100,3.1,CA,1678151697
163,bwanga,-3.0308,31.7601,17.68,95,100,2.32,TZ,1678151698
164,bantry,51.6833,-9.45,6.55,85,100,3.13,IE,1678151699
165,lagoa,39.05,-27.9833,16.03,82,98,14.28,PT,1678151380
166,sangar,63.9242,127.4739,-21.45,97,98,0.81,RU,1678151347
167,puerto ayora,-0.7393,-90.3518,25.86,90,95,2.68,EC,1678151700
168,sao filipe,14.8961,-24.4956,22.66,75,0,0.73,CV,1678151258
169,kahului,20.8947,-156.47,25.54,85,100,9.26,US,1678151255
170,sao felix do xingu,-6.6447,-51.995,22.72,97,39,0.76,BR,1678151514
171,luquillo,18.3725,-65.7166,25.97,65,100,1.54,PR,1678151703
172,hithadhoo,-0.6,73.0833,27.74,68,0,0.75,MV,1678151272
173,bengkulu,-3.8004,102.2655,24.66,84,46,1.86,ID,1678151253
174,ossora,59.2353,163.0719,-7.92,85,100,1.91,RU,1678151705
175,iisalmi,63.5592,27.1907,-16.65,100,99,1.11,FI,1678151705
176,hami,42.8,93.45,7.15,37,6,3.22,CN,1678151219
177,ponta do sol,32.6667,-17.1,20.0,93,18,2.74,PT,1678151273
178,shaowu,27.3409,117.4831,17.0,46,3,1.29,CN,1678151708
179,karasburg,-28.0167,18.75,15.86,66,0,3.74,NA,1678151708
180,koudougou,12.25,-2.3667,29.57,11,100,5.24,BF,1678151709
181,kogon,39.7228,64.5517,11.02,71,0,3.09,UZ,1678151710
182,suoyarvi,62.0833,32.35,-17.3,100,100,1.29,RU,1678151711
183,furukawa,38.5717,140.9556,10.86,44,100,1.56,JP,1678151711
184,maracaju,-21.6144,-55.1683,25.77,71,71,0.21,BR,1678151713
185,palmer,42.1584,-72.3287,4.23,40,75,6.69,US,1678151666
186,pangody,65.85,74.4859,-17.39,97,100,4.1,RU,1678151714
187,fortuna,40.5982,-124.1573,8.14,85,75,1.79,US,1678151578
188,malanje,-9.5402,16.341,17.99,81,89,1.05,AO,1678151716
189,tefe,-3.3542,-64.7114,23.34,98,100,1.16,BR,1678151717
190,naze,28.3667,129.4833,17.51,50,2,2.54,JP,1678151387
191,tazovskiy,67.4667,78.7,-19.42,98,100,2.34,RU,1678151719
192,high level,58.5169,-117.136,-17.78,95,100,2.52,CA,1678151398
193,cabedelo,-6.9811,-34.8339,27.37,79,76,5.82,BR,1678151576
194,luderitz,-26.6481,15.1594,16.17,81,0,7.4,NA,1678151241
195,nanortalik,60.1432,-45.2371,-2.18,82,3,2.0,GL,1678151309
196,uyuni,-20.4597,-66.825,15.47,43,94,4.91,BO,1678151722
197,korla,41.7597,86.1469,6.26,46,100,0.34,CN,1678151723
198,cabo san lucas,22.8909,-109.9124,24.78,58,35,5.65,MX,1678151118
199,daru,-9.0763,143.2092,29.93,63,21,5.03,PG,1678151396
200,natal,-5.795,-35.2094,25.36,88,40,2.57,BR,1678151726
201,turukhansk,65.8167,87.9833,-16.35,86,100,5.88,RU,1678151727
202,awjilah,29.1081,21.2869,13.98,43,0,2.37,LY,1678151728
203,singaparna,-7.3515,108.111,24.91,76,18,0.35,ID,1678151729
204,dingle,10.9995,122.6711,26.6,75,17,6.17,PH,1678151729
205,constitucion,-35.3333,-72.4167,14.19,94,50,3.27,CL,1678151225
206,uruzgan,32.8333,66.0,8.71,53,0,3.59,AF,1678151730
207,saint-augustin,51.226,-58.6502,1.69,98,100,6.88,CA,1678151275
208,walvis bay,-22.9575,14.5053,15.61,90,7,2.9,NA,1678151731
209,mastic beach,40.7668,-72.8521,7.44,42,0,3.09,US,1678151723
210,castro,-24.7911,-50.0119,16.67,96,100,0.79,BR,1678151218
211,lufilufi,-13.8745,-171.5986,30.44,77,100,8.23,WS,1678151737
212,takapau,-40.0333,176.35,19.58,44,0,1.79,NZ,1678151741
213,ca mau,9.1769,105.15,25.97,61,11,4.67,VN,1678151516
214,saskylakh,71.9167,114.0833,-33.05,100,98,2.03,RU,1678151208
215,silute,55.3489,21.4831,-1.6,84,100,2.54,LT,1678151746
216,oil city,41.4339,-79.7064,4.67,94,100,5.66,US,1678151747
217,srandakan,-7.9386,110.2506,26.46,79,6,1.92,ID,1678151749
218,gasa,31.5,34.4667,14.18,70,73,2.04,PS,1678151749
219,kisangani,0.5167,25.2,22.44,79,100,0.87,CD,1678151750
220,chuy,-33.6971,-53.4616,21.86,92,100,4.95,UY,1678151261
221,chumikan,54.7183,135.315,-8.97,87,100,5.42,RU,1678151751
222,abu kamal,34.4506,40.9171,14.17,59,85,6.06,SY,1678151400
223,hambantota,6.1241,81.1185,24.19,100,20,1.03,LK,1678151752
224,jasper,37.2001,-94.3502,15.93,60,40,4.12,US,1678151123
225,vestmannaeyjar,63.4427,-20.2734,-3.65,54,98,5.22,IS,1678151501
226,ewa beach,21.3156,-158.0072,27.97,55,40,6.69,US,1678151753
227,port lincoln,-34.7333,135.8667,17.79,58,99,7.72,AU,1678151754
228,eufaula,31.8913,-85.1455,22.96,67,0,1.54,US,1678151494
229,punta gorda,26.9298,-82.0454,26.03,81,0,5.36,US,1678151494
230,nadym,65.5333,72.5167,-18.59,96,100,5.84,RU,1678151756
231,chokurdakh,70.6333,147.9167,-37.49,99,100,1.81,RU,1678151327
232,betafo,-19.8333,46.85,16.38,93,100,2.54,MG,1678151757
233,avarua,-21.2078,-159.775,31.03,74,75,7.72,CK,1678151292
234,huilong,31.8111,121.655,14.96,65,100,5.23,CN,1678151758
235,kodiak,57.79,-152.4072,4.73,70,0,1.54,US,1678151239
236,oranjestad,12.524,-70.027,25.43,81,17,8.76,AW,1678151221
237,sitka,57.0531,-135.33,0.94,27,0,3.09,US,1678151290
238,okhotsk,59.3833,143.3,-17.83,78,52,1.88,RU,1678151445
239,tuatapere,-46.1333,167.6833,21.21,46,76,2.49,NZ,1678151246
240,morshansk,53.4435,41.8107,-10.64,95,14,2.91,RU,1678151761
241,souillac,-20.5167,57.5167,24.53,87,90,2.27,MU,1678151205
242,nalut,30.3333,10.85,14.81,23,45,3.84,LY,1678151762
243,kirakira,-10.4544,161.9205,28.32,75,100,0.77,SB,1678151434
244,severo-kurilsk,50.6789,156.125,0.6,91,100,4.06,RU,1678151401
245,shenjiamen,29.9576,122.298,12.96,82,100,7.44,CN,1678151763
246,victoria,22.2855,114.1577,21.25,52,9,4.92,HK,1678150966
247,skovorodino,53.9833,123.9167,-10.06,77,38,0.9,RU,1678151764
248,raduzhnyy,62.0961,77.475,-10.33,95,91,4.37,RU,1678151765
249,niksic,42.7731,18.9445,7.6,99,99,1.24,ME,1678151766
250,deputatskiy,69.3,139.9,-22.18,95,100,0.7,RU,1678151767
251,upernavik,72.7868,-56.1549,-10.08,91,33,3.5,GL,1678151209
252,roebourne,-20.7833,117.1333,31.55,61,1,2.03,AU,1678151768
253,krasnoselkup,65.7,82.4667,-13.07,95,100,5.16,RU,1678151530
254,pandan,14.0453,124.1694,25.2,84,22,6.27,PH,1678151769
255,lima,-12.0432,-77.0282,26.61,68,0,4.63,PE,1678151417
256,caborca,30.5838,-111.101,19.86,23,100,1.99,MX,1678151567
257,pevek,69.7008,170.3133,-31.09,92,8,0.71,RU,1678151382
258,milkovo,54.7167,158.6167,-4.02,84,39,1.26,RU,1678151499
259,la libertad,-2.2333,-80.9,24.07,89,100,1.23,EC,1678151771
260,coihaique,-45.5752,-72.0662,9.97,76,75,2.57,CL,1678151107
261,iskateley,67.6803,53.1512,-28.6,100,81,2.16,RU,1678151772
262,baiyin,36.5583,104.2081,7.1,25,100,0.99,CN,1678151773
263,omsukchan,62.5333,155.8,-20.56,92,100,1.36,RU,1678151773
264,butiama,-1.7667,33.9667,17.34,68,11,1.85,TZ,1678151774
265,yenagoa,4.9247,6.2642,24.85,93,100,1.55,NG,1678151775
266,canandaigua,42.8742,-77.288,2.46,75,100,1.4,US,1678151776
267,muyezerskiy,63.9333,31.65,-12.31,96,100,1.51,RU,1678151776
268,whitehorse,60.7161,-135.0538,-11.06,70,100,2.24,CA,1678151650
269,gadung,6.8025,124.02,28.32,71,5,1.45,PH,1678151778
270,teloloapan,18.35,-99.85,22.73,30,75,1.64,MX,1678151778
271,marawi,7.9986,124.2928,23.36,80,32,2.08,PH,1678151780
272,turayf,31.6725,38.6637,9.05,60,100,3.29,SA,1678151781
273,roros,62.5747,11.3842,-13.09,78,100,4.12,NO,1678151782
274,ternate,0.8,127.4,27.76,77,51,3.73,ID,1678151782
275,moindou,-21.6924,165.677,28.25,58,18,2.51,NC,1678151783
276,savannah bight,16.45,-85.85,26.06,78,30,8.87,HN,1678151784
277,paracuru,-3.41,-39.0306,28.39,87,100,5.75,BR,1678151785
278,bor,56.3567,44.0669,-4.04,99,94,2.32,RU,1678151785
279,dovers,12.8833,-61.1833,25.51,75,73,6.39,VC,1678151786
280,saint-paul,-21.0096,55.2707,25.56,97,100,0.89,RE,1678151787
281,goundam,16.4145,-3.6708,24.95,10,95,4.34,ML,1678151788
282,juegang,32.3174,121.1855,14.27,52,100,4.63,CN,1678151788
283,north bend,43.4065,-124.2243,6.8,87,100,3.09,US,1678151736
284,puri,19.8,85.85,24.29,75,4,2.73,IN,1678151398
285,tilichiki,60.4667,166.1,-9.64,93,100,4.25,RU,1678151556
286,east london,-33.0153,27.9116,20.43,77,13,4.7,ZA,1678151204
287,puerto colombia,10.9878,-74.9547,26.05,84,33,13.61,CO,1678151791
288,plettenberg bay,-34.0527,23.3716,17.27,87,96,3.19,ZA,1678151792
289,labytnangi,66.6572,66.4183,-26.83,86,3,3.96,RU,1678151793
290,waipawa,-41.4122,175.5153,16.63,58,1,2.16,NZ,1678151793
291,lynn haven,30.2455,-85.6483,22.25,96,100,3.09,US,1678151794
292,innisfail,-17.5333,146.0333,26.77,82,67,2.02,AU,1678151795
293,manzanillo,20.3433,-77.1167,26.0,62,93,3.39,CU,1678151624
294,aljezur,37.3191,-8.8033,13.47,92,100,2.9,PT,1678151796
295,gaozhou,21.9392,110.8461,20.18,58,5,2.17,CN,1678151796
296,tzucacab,20.0667,-89.05,28.67,44,21,3.46,MX,1678151797
297,labuhan,-6.8844,112.2051,26.51,79,71,1.88,ID,1678151487
298,eyl,7.9803,49.8164,23.17,82,50,5.54,SO,1678151799
299,cherskiy,68.75,161.3,-28.83,90,6,1.07,RU,1678151412
300,saint anthony,45.0205,-93.218,1.96,81,40,5.66,US,1678151335
301,starobesheve,47.7504,38.0305,0.84,65,100,2.78,UA,1678151800
302,madimba,-10.4,40.3333,25.61,81,100,4.24,TZ,1678151563
303,labuan,5.2767,115.2417,22.2,94,40,1.03,MY,1678151801
304,campo formoso,-10.5075,-40.3214,24.61,62,36,4.15,BR,1678151802
305,sulangan,11.1373,123.7228,26.01,81,56,8.4,PH,1678151804
306,kapoeta,4.7717,33.5903,28.61,30,100,4.32,SS,1678151805
307,inzer,54.2167,57.5556,-17.09,100,100,1.6,RU,1678151805
308,srednekolymsk,67.45,153.6833,-27.94,90,97,1.47,RU,1678151806
309,boyolangu,-8.1181,111.8935,26.55,78,68,0.88,ID,1678151510
310,puerto carreno,6.189,-67.4859,29.71,58,100,1.56,CO,1678151807
311,rio gallegos,-51.6226,-69.2181,8.03,39,0,9.26,AR,1678151166
312,san andres,12.5847,-81.7006,27.01,74,40,6.17,CO,1678151808
313,abha,18.2164,42.5053,12.14,62,0,0.0,SA,1678151809
314,dalian,38.9122,121.6022,3.96,100,75,6.0,CN,1678151483
315,ixtapa,20.7,-105.2,23.46,68,0,3.09,MX,1678151395
316,kargasok,59.0556,80.8572,-2.58,93,100,8.69,RU,1678151810
317,lubawa,53.5043,19.7497,-4.22,91,100,1.99,PL,1678151811
318,moranbah,-22.0016,148.0466,29.42,44,100,5.29,AU,1678151812
319,sainte-rose,16.3324,-61.6979,23.02,78,0,1.03,GP,1678151812
320,bushehr,28.9684,50.8385,22.05,68,0,5.14,IR,1678151813
321,golden,39.7555,-105.2211,2.83,73,75,5.66,US,1678151702
322,emba,48.8264,58.1442,1.48,96,84,5.95,KZ,1678151814
323,portel,-1.9356,-50.8211,23.75,97,100,2.18,BR,1678151815
324,geri,35.1,33.4167,10.18,81,20,3.6,CY,1678151815
325,manyana,-23.4,21.7167,21.17,62,56,3.94,BW,1678151816
326,lompoc,34.6391,-120.4579,13.72,67,89,1.79,US,1678151315
327,allapalli,19.4167,80.0667,21.1,35,5,1.22,IN,1678151817
328,porangatu,-13.4408,-49.1486,23.08,86,98,1.18,BR,1678151378
329,colares,38.7992,-9.4469,14.38,90,100,8.94,PT,1678151818
330,tual,-5.6667,132.75,28.12,80,100,7.58,ID,1678151819
331,tambura,5.6,27.4667,26.24,39,38,1.7,SS,1678151819
332,atambua,-9.1061,124.8925,25.76,79,100,1.26,ID,1678151820
333,fairbanks,64.8378,-147.7164,-0.66,66,20,0.0,US,1678151494
334,vitim,59.4511,112.5578,-17.28,97,100,1.48,RU,1678151821
335,etchoropo,26.7667,-109.6667,23.56,47,99,4.72,MX,1678151822
336,dwarka,22.2394,68.9678,23.75,71,0,3.38,IN,1678151822
337,beringovskiy,63.05,179.3167,-19.7,76,5,2.87,RU,1678151823
338,college,64.8569,-147.8028,-0.67,65,75,0.0,US,1678151472
339,kilindoni,-7.9139,39.6668,26.35,75,100,5.55,TZ,1678151824
340,chilca,-12.5211,-76.7372,23.12,79,100,2.99,PE,1678151825
341,toora-khem,52.4675,96.11,-16.24,99,100,0.66,RU,1678151826
342,yulara,-25.2406,130.9889,26.18,24,0,7.41,AU,1678151311
343,tanete,-3.9443,119.7848,27.77,74,92,1.94,ID,1678151827
344,puro,12.4841,123.3827,25.78,77,14,5.02,PH,1678151827
345,te anau,-45.4167,167.7167,16.92,60,88,2.6,NZ,1678151307
346,boone,39.0334,-92.3335,11.9,66,5,5.86,US,1678151828
347,padang,-0.9492,100.3543,26.03,82,100,1.43,ID,1678151829
348,altus,34.6381,-99.334,17.04,51,0,4.12,US,1678151830
349,yumen,40.2833,97.2,5.26,29,0,4.1,CN,1678151385
350,sola,-13.8833,167.55,27.47,78,39,4.65,VU,1678151520
351,saint george,37.1041,-113.5841,11.64,36,75,3.09,US,1678151424
352,muros,42.7762,-9.0603,13.71,94,100,3.11,ES,1678151505
353,sistranda,63.7256,8.834,-4.02,62,100,4.96,NO,1678151083
354,berdigestyakh,62.0989,126.6992,-15.88,94,100,1.87,RU,1678151833
355,dargaville,-35.9333,173.8833,22.31,58,36,3.14,NZ,1678151477
356,maunabo,18.0072,-65.8993,25.91,83,7,2.68,PR,1678151835
357,mountain home,43.133,-115.6912,1.71,68,20,4.12,US,1678151836
358,kristiansund,63.1115,7.732,-3.97,93,75,1.54,NO,1678151837
359,lamballe,48.4676,-2.5144,5.6,79,100,1.34,FR,1678151659
360,segezha,63.7415,34.3222,-9.35,95,100,3.94,RU,1678151838
361,nantucket,41.2835,-70.0995,7.08,49,0,5.66,US,1678151799
362,ucluelet,48.9329,-125.5528,7.17,87,100,0.45,CA,1678151839
363,berlevag,70.8578,29.0864,-11.0,67,100,3.6,NO,1678151840
364,lugovoy,42.9472,72.7644,8.4,51,85,3.93,KZ,1678151841
365,mafinga,-7.25,35.0667,18.44,70,93,1.04,TZ,1678151842
366,bretcu,46.05,26.3,0.69,65,100,1.27,RO,1678151842
367,kota belud,6.351,116.4305,27.41,74,33,2.96,MY,1678151843
368,port moresby,-9.4431,147.1797,31.68,58,40,2.57,PG,1678151844
369,urucara,-2.5364,-57.76,24.07,98,100,0.99,BR,1678151845
370,taksimo,56.3444,114.8794,-15.56,77,50,0.82,RU,1678151845
371,lieksa,63.3167,30.0167,-13.03,97,100,1.25,FI,1678151846
372,sumkino,58.1108,68.3244,-13.43,99,81,1.8,RU,1678151847
373,omboue,-1.5746,9.2618,25.94,85,100,2.82,GA,1678151848
374,bilma,18.6853,12.9164,25.85,12,1,3.99,NE,1678151848
375,djambala,-2.5447,14.7533,21.41,93,100,2.35,CG,1678151849
376,kangasala,61.4638,24.076,-13.15,100,97,1.23,FI,1678151850
377,tadine,-21.55,167.8833,26.64,61,90,5.27,NC,1678151348
378,gurupi,-11.7292,-49.0686,23.53,80,28,1.2,BR,1678151852
379,wabrzezno,53.2799,18.9477,-0.54,83,100,2.44,PL,1678151852
380,grand gaube,-20.0064,57.6608,25.22,85,75,0.45,MU,1678151854
381,belmonte,-15.8631,-38.8828,26.11,82,5,4.25,BR,1678151854
382,mamallapuram,12.6264,80.1722,23.03,73,100,1.46,IN,1678151855
383,qaqortoq,60.7167,-46.0333,-5.11,96,26,1.85,GL,1678151856
384,kavaratti,10.5669,72.642,27.91,59,72,1.41,IN,1678151424
385,guerrero negro,27.9769,-114.0611,14.86,67,100,9.25,MX,1678151453
386,doume,4.2333,13.45,21.55,71,100,1.25,CM,1678151857
387,mandurah,-32.55,115.7,19.94,52,0,7.01,AU,1678151858
388,half moon bay,37.4636,-122.4286,12.74,65,40,5.14,US,1678151625
389,mayumba,-3.432,10.6554,26.07,84,100,2.47,GA,1678151843
390,katherine,-14.4667,132.2667,27.18,74,40,6.17,AU,1678151860
391,codrington,-38.2667,141.9667,16.93,56,98,9.43,AU,1678151860
392,kieta,-6.2167,155.6333,29.59,67,100,1.07,PG,1678151861
393,ahuimanu,21.4447,-157.8378,27.84,78,75,6.17,US,1678151862
394,san quintin,30.4833,-115.95,14.18,66,52,9.34,MX,1678151455
395,vuktyl,63.8567,57.3094,-28.09,100,100,1.35,RU,1678151358
396,moree,-29.4667,149.85,32.98,28,32,5.48,AU,1678151864
397,burley,42.5357,-113.7928,-1.56,78,20,0.0,US,1678151864
398,kulhudhuffushi,6.6221,73.07,27.3,72,40,6.05,MV,1678151865
399,san cristobal,7.7669,-72.225,22.1,73,98,0.8,VE,1678151865
400,tyup,42.7276,78.3648,1.73,68,58,1.63,KG,1678151866
401,tessalit,20.1986,1.0114,22.3,11,100,3.66,ML,1678151273
402,along,28.1667,94.7667,16.61,88,98,1.13,IN,1678151867
403,lamont,35.2597,-118.9143,13.89,47,69,2.6,US,1678151868
404,eureka,40.8021,-124.1637,8.29,85,53,0.89,US,1678151157
405,nanchong,30.7951,106.0847,14.44,90,100,0.72,CN,1678151869
406,leshukonskoye,64.8989,45.7622,-16.78,97,86,2.44,RU,1678151869
407,san antonio,29.4241,-98.4936,26.06,59,0,3.09,US,1678151587
408,longyearbyen,78.2186,15.6401,-17.09,55,20,7.72,SJ,1678151436
409,mezdra,43.15,23.7,6.28,72,57,2.84,BG,1678151871
410,zhuzhou,27.8333,113.15,19.07,42,11,1.68,CN,1678151871
411,portland,45.5234,-122.6762,8.49,80,75,5.14,US,1678151630
412,bumba,2.1833,22.4667,24.34,65,93,0.65,CD,1678151540
413,bosansko grahovo,44.1794,16.3639,4.24,96,100,1.61,BA,1678151873
414,new amsterdam,6.25,-57.5167,24.07,87,100,2.4,GY,1678151873
415,port keats,-14.25,129.55,30.34,68,40,5.07,AU,1678151874
416,raudeberg,61.9875,5.1352,-3.91,60,100,8.0,NO,1678151372
417,komsomolskiy,40.4272,71.7189,5.4,87,0,3.09,UZ,1678151346
418,jalu,29.0331,21.5482,13.97,44,0,1.89,LY,1678151544
419,morondava,-20.2833,44.2833,26.49,81,96,8.78,MG,1678151339
420,pechenga,69.5259,31.1703,-18.69,99,35,2.2,RU,1678151876
421,catamarca,-28.4696,-65.7852,27.45,61,18,9.11,AR,1678151793
422,namibe,-15.1961,12.1522,21.22,83,50,1.99,AO,1678151414
423,oktyabrskiy,54.4815,53.471,-8.15,97,100,2.21,RU,1678151878
424,ishigaki,24.3448,124.1572,21.07,43,40,5.66,JP,1678151878
425,newport,51.5877,-2.9984,7.47,91,100,4.97,GB,1678151879
426,margate,51.3813,1.3862,5.49,89,100,1.79,GB,1678151879
427,agirish,61.9247,63.0231,-24.22,100,100,1.02,RU,1678151880
428,maroslele,46.2667,20.35,5.74,90,100,3.54,HU,1678151881
429,la ronge,55.1001,-105.2842,-22.98,96,100,1.39,CA,1678151524
430,namatanai,-3.6667,152.4333,28.79,69,73,2.04,PG,1678151882
431,mendeleyevsk,55.9082,52.2905,-3.42,96,100,3.11,RU,1678151882
432,sumenep,-7.0167,113.8667,27.21,78,95,1.42,ID,1678151883
433,cayenne,4.9333,-52.3333,26.02,83,40,3.6,GF,1678151527
434,kumluca,36.3703,30.2869,12.73,60,100,1.39,TR,1678151884
435,port-gentil,-0.7193,8.7815,27.35,80,100,4.49,GA,1678151885
436,biak,-0.9131,122.8766,28.23,65,100,0.63,ID,1678151885
437,lamar,33.6668,-95.5836,21.99,78,0,2.57,US,1678151886
438,yablonovo,50.8523,37.3574,-4.03,81,59,2.57,RU,1678151887
439,bendigo,-36.7667,144.2833,17.02,56,20,1.79,AU,1678151814
440,tema,5.667,-0.0166,27.35,79,91,7.22,GH,1678151888
441,belaya gora,68.5333,146.4167,-28.58,94,41,0.64,RU,1678151889
442,lodja,-3.4833,23.4333,22.05,96,100,0.38,CD,1678151298
443,sompeta,18.9333,84.6,23.66,46,8,1.98,IN,1678151891
444,coahuayana,18.7333,-103.6833,22.84,79,100,1.94,MX,1678151892
445,kaeo,-35.1,173.7833,21.8,64,45,2.03,NZ,1678151892
446,wanning,18.8003,110.3967,22.3,65,38,2.41,CN,1678151893
447,isangel,-19.55,169.2667,28.05,66,11,6.09,VU,1678151386
448,campos belos,-13.0367,-46.7717,22.52,79,53,0.69,BR,1678151806
449,tupiza,-21.45,-65.7167,14.32,71,100,2.61,BO,1678151895
450,davila,18.4726,120.5763,24.99,60,0,6.09,PH,1678151896
451,sinnamary,5.3833,-52.95,24.97,86,63,5.37,GF,1678151300
452,salalah,17.0151,54.0924,24.05,29,0,2.06,OM,1678151576
453,salinopolis,-0.6136,-47.3561,25.57,88,100,4.8,BR,1678151539
454,monywa,22.1167,95.1333,23.63,39,0,0.57,MM,1678151898
455,mamakan,57.8161,114.0028,-18.85,99,97,0.45,RU,1678151899
456,port-cartier,50.0334,-66.8654,5.06,99,100,4.32,CA,1678151900
457,opuwo,-18.0607,13.84,18.77,44,54,2.0,NA,1678151901
458,porkhov,57.765,29.5561,-6.23,95,100,3.1,RU,1678151901
459,huejuquilla el alto,22.6,-103.8667,19.44,9,20,3.5,MX,1678151902
460,gemona,46.2794,13.1431,6.48,86,100,1.0,IT,1678151903
461,alyangula,-13.8483,136.4192,26.82,83,100,9.69,AU,1678151903
462,acajutla,13.5928,-89.8275,26.52,79,13,3.14,SV,1678151904
463,valparaiso,-33.0393,-71.6273,19.44,65,0,1.54,CL,1678151340
464,guiglo,6.5456,-7.4966,24.97,87,22,1.49,CI,1678151905
465,kalabo,-14.97,22.6814,19.83,96,100,2.03,ZM,1678151906
466,robertsport,6.7533,-11.3686,26.18,86,100,4.31,LR,1678151907
467,manokwari,-0.8667,134.0833,27.51,70,26,1.13,ID,1678151907
468,bereda,43.2686,-7.5406,10.64,100,100,1.38,ES,1678151499
469,torit,4.4133,32.5678,27.3,31,62,1.1,SS,1678151908
470,sanchor,24.7553,71.7722,21.63,50,0,2.72,IN,1678151909
471,tabas,33.5959,56.9244,14.12,28,3,2.06,IR,1678151910
472,port blair,11.6667,92.75,26.42,71,0,4.44,IN,1678151334
473,ouesso,1.6136,16.0517,23.95,67,99,1.46,CG,1678151911
474,houma,29.5958,-90.7195,24.44,88,0,2.06,US,1678151912
475,siderno,38.2779,16.302,9.08,84,91,3.22,IT,1678151913
476,jiwani,25.05,61.7417,23.18,67,0,3.1,PK,1678151457
477,epe,6.5841,3.9834,24.43,92,100,4.68,NG,1678151914
478,dutse,11.7594,9.3392,26.33,12,100,3.14,NG,1678151915
479,skegness,53.1436,0.3363,3.52,88,100,3.06,GB,1678151915
480,kalang,5.9197,121.3631,27.62,75,16,3.39,PH,1678151916
481,kwinana,-32.25,115.7667,22.88,50,0,6.95,AU,1678151918
482,necochea,-38.5473,-58.7368,28.91,42,100,9.69,AR,1678151919
483,hunsur,12.3075,76.2878,17.74,43,99,1.5,IN,1678151919
484,vila velha,-20.3297,-40.2925,26.97,88,75,3.6,BR,1678151333
485,valledupar,10.4631,-73.2532,27.83,61,20,6.69,CO,1678151920
486,timberlake,37.3207,-79.2575,13.56,62,0,0.0,US,1678151921
487,vila do maio,15.1333,-23.2167,21.44,75,3,5.3,CV,1678151922
488,fukue,32.6881,128.8419,15.2,55,0,3.09,JP,1678151922
489,presidencia roque saenz pena,-26.7852,-60.4388,24.43,44,0,2.9,AR,1678151923
490,avera,33.194,-82.5271,20.73,61,100,2.99,US,1678151924
491,silifke,36.3778,33.9344,12.83,60,0,1.95,TR,1678151924
492,krishnanagar,23.4,88.5,21.62,29,0,1.63,IN,1678151925
493,beba,22.4437,-79.7253,23.15,80,4,3.07,CU,1678151925
494,sioux lookout,50.1001,-91.917,-8.26,91,99,3.73,CA,1678151732
495,tutoia,-2.7619,-42.2744,26.61,83,40,5.42,BR,1678151926
496,tiznit,29.5833,-9.5,13.22,70,100,0.36,MA,1678151927
497,mackay,-21.15,149.2,30.93,71,62,3.96,AU,1678151910
498,jurado,7.1053,-77.7641,24.54,95,100,0.35,CO,1678151770
499,voiron,45.3639,5.5921,2.8,75,27,0.22,FR,1678151928
500,conneaut,41.9476,-80.5542,3.16,95,100,6.11,US,1678151929
501,zhezkazgan,47.8043,67.7144,-0.01,93,100,5.0,KZ,1678151930
502,bolshaya glushitsa,50.2406,43.5908,-3.0,80,100,1.89,RU,1678151931
503,kolondieba,11.0882,-6.8926,29.27,13,100,1.91,ML,1678151931
504,council bluffs,41.2619,-95.8608,3.6,75,100,7.2,US,1678151932
505,marzuq,14.4,46.4667,16.79,31,0,2.36,YE,1678151933
506,bubaque,11.2833,-15.8333,24.93,67,100,5.83,GW,1678151933
507,great bend,38.3645,-98.7648,6.07,56,0,5.66,US,1678151934
508,loviisa,60.4566,26.2251,-13.17,93,100,2.2,FI,1678151829
509,nur,52.6683,22.3221,-1.45,87,100,2.04,PL,1678151935
510,ganserndorf,48.3392,16.7202,5.66,66,100,2.27,AT,1678151935
511,billings,45.7833,-108.5007,-2.62,90,100,3.6,US,1678151936
512,gisborne,-38.6533,178.0042,18.83,47,0,4.64,NZ,1678151804
513,sisimiut,66.9395,-53.6735,-2.59,65,13,3.71,GL,1678151938
514,acarau,-2.8856,-40.12,26.35,81,90,5.76,BR,1678151517
515,iqaluit,63.7506,-68.5145,-2.15,93,100,6.17,CA,1678151938
516,dalhousie,32.5333,75.9833,5.81,36,1,3.95,IN,1678151939
517,sungurlu,40.1675,34.3739,3.56,73,1,1.64,TR,1678151940
518,mungwi,-10.1732,31.3694,16.58,95,100,0.11,ZM,1678151940
519,xining,36.6167,101.7667,3.49,44,100,0.47,CN,1678151421
520,chornobay,49.6708,32.3239,-0.58,68,90,3.36,UA,1678151941
521,lyantonde,-0.4031,31.1572,18.77,75,99,0.88,UG,1678151942
522,saskatoon,52.1168,-106.6345,-17.79,70,92,4.02,CA,1678151830
523,moroni,-11.7022,43.2551,25.85,77,100,4.65,KM,1678151944
524,villamontes,-21.25,-63.5,28.47,61,100,4.42,BO,1678151944
525,port shepstone,-30.7414,30.455,22.71,76,86,4.7,ZA,1678151945
526,kismayo,-0.3582,42.5454,25.26,88,61,7.23,SO,1678151946
527,saint-paul-les-dax,43.7272,-1.0516,6.55,85,93,2.06,FR,1678151947
528,todos santos,23.45,-110.2167,25.03,83,92,2.45,MX,1678151947
529,gobabis,-22.45,18.9667,20.12,22,28,3.84,NA,1678151949
530,virginia beach,36.8529,-75.978,10.57,84,0,4.12,US,1678151883
531,manavalakurichi,8.1333,77.3,23.76,72,11,4.06,IN,1678151950
532,binzhou,37.3667,118.0167,16.01,23,0,3.4,CN,1678151951
533,bahile,9.9995,118.7878,28.93,63,7,1.49,PH,1678151951
534,rincon,32.296,-81.2354,19.98,88,0,3.6,US,1678151952
535,tubuala,9.5167,-79.0333,25.85,86,96,7.21,PA,1678151953
536,praia,14.9215,-23.5087,21.3,78,20,4.63,CV,1678151693
537,birao,10.2849,22.7882,26.69,19,100,1.86,CF,1678151955
538,channel-port aux basques,47.5702,-59.1367,-1.65,90,100,4.62,CA,1678151741
539,callaway,30.153,-85.5699,22.21,95,20,4.12,US,1678151957
540,asamankese,5.8601,-0.6635,24.85,90,70,2.96,GH,1678151958
541,sorland,67.667,12.6934,-4.08,52,100,4.39,NO,1678151959
542,gwadar,25.1216,62.3254,22.97,55,0,3.09,PK,1678151960
543,sobolevo,54.4299,31.8996,-8.58,91,100,3.0,RU,1678151962
544,miri,4.4148,114.0089,24.85,93,100,2.82,MY,1678151431
545,ravar,31.2656,56.8055,16.81,18,100,2.62,IR,1678151964
546,qasigiannguit,68.8193,-51.1922,-6.86,81,5,1.83,GL,1678151447
547,hualmay,-11.0964,-77.6139,23.42,75,98,2.94,PE,1678151966
548,maningrida,-12.0667,134.2667,24.59,88,100,5.75,AU,1678151968
549,ahipara,-35.1667,173.1667,19.38,76,63,1.47,NZ,1678151383
550,shache,38.4167,77.2406,7.62,36,40,3.33,CN,1678151429
551,kashmor,28.4333,69.5833,21.56,35,14,4.43,PK,1678151971
552,charters towers,-20.1,146.2667,28.09,62,76,5.83,AU,1678151681
553,karratha,-20.7377,116.8463,31.2,62,5,2.02,AU,1678151972
554,jadu,31.953,12.0261,14.53,24,100,0.74,LY,1678151974
555,jizan,17.3333,42.6667,25.28,65,0,1.37,SA,1678151976
556,atessa,42.0693,14.4511,8.49,57,5,3.71,IT,1678151978
557,penzance,50.1186,-5.5371,6.38,70,64,7.56,GB,1678151979
558,kuminskiy,58.6667,66.5667,-17.44,100,87,1.42,RU,1678151984
559,san francisco,37.7749,-122.4194,12.28,71,75,5.36,US,1678151966
560,fuling,29.7022,107.3919,14.13,90,100,0.93,CN,1678151990
561,leczna,51.3012,22.8814,0.17,100,40,4.12,PL,1678151997
562,harrisonburg,38.4496,-78.8689,11.67,59,0,3.6,US,1678151862
563,luau,-10.7073,22.2247,18.88,95,100,1.28,AO,1678152000
564,tommot,58.9564,126.2925,-13.12,90,100,4.36,RU,1678152005
565,asfi,32.2994,-9.2372,15.36,88,31,1.13,MA,1678152007
566,bay roberts,47.5999,-53.2648,-1.03,88,64,0.89,CA,1678151644
567,bonthe,7.5264,-12.505,25.14,85,100,3.34,SL,1678152015
568,smithers,54.7804,-127.1743,-7.78,79,100,0.82,CA,1678151736
569,amarwara,22.3,79.1667,20.3,35,95,0.92,IN,1678152010
570,snyder,32.7179,-100.9176,26.19,8,0,2.06,US,1678152021
571,wamba,8.9333,8.6,26.27,62,100,1.1,NG,1678152021
572,porto novo,6.4965,2.6036,24.9,95,100,4.25,BJ,1678152022
573,brodokalmak,55.5748,62.082,-10.5,96,73,1.88,RU,1678152023
574,eydhafushi,5.1033,73.0708,27.31,77,88,5.51,MV,1678152024
575,tura,25.5198,90.2201,19.38,30,0,1.15,IN,1678151553
576,brae,60.3964,-1.353,0.73,63,100,10.88,GB,1678151501
577,neryungri,56.6709,124.6491,-18.78,83,97,0.33,RU,1678152026
578,maun,-19.9833,23.4167,20.25,84,100,1.37,BW,1678152027
579,kemijarvi,66.7131,27.4306,-17.29,98,100,1.2,FI,1678152028
